; Lines in this file that don't start with ; or a newline are interpreted to be raw logs.
; These sample logs are real outputs

#BESTPOSA,ICOM2,0,85.0,FINESTEERING,2007,169577.000,02000020,b1f6,14693;SOL_COMPUTED,PPP,51.11679200638,-114.03886802392,1064.4326,-16.9000,WGS84,0.0498,0.0410,0.0756,"TSTR",17.000,0.000,18,18,18,16,00,00,00,33*73cf9be2
#INSPVAXA,COM1,0,52.5,FINESTEERING,1992,397111.000,00000820,4e14,14102;INS_ALIGNING,NONE,0.00000000000,0.00000000000,0.0000,0.0000,0.0000,0.0000,0.0000,0.000000000,0.000000000,0.000000000,0.0000,0.0000,0.0000,0.0000,0.0000,0.0000,0.0000,0.0000,0.0000,00000000,0*994d3f79
#INSPVAXA,COM1,0,52.5,FINESTEERING,1992,397112.000,00000820,4e14,14102;INS_ALIGNING,NONE,0.00000000000,0.00000000000,0.0000,0.0000,0.0000,0.0000,0.0000,0.000000000,0.000000000,0.000000000,0.0000,0.0000,0.0000,0.0000,0.0000,0.0000,0.0000,0.0000,0.0000,00000000,0*41bcb5ff
#INSPVAXA,COM1,0,56.5,FINESTEERING,1992,397113.000,00000820,4e14,14102;INS_ALIGNING,NONE,0.00000000000,0.00000000000,0.0000,0.0000,0.0000,0.0000,0.0000,0.000000000,0.000000000,0.000000000,0.0000,0.0000,0.0000,0.0000,0.0000,0.0000,0.0000,0.0000,0.0000,00000000,0*41c89b04
#INSPVAXA,COM1,0,56.5,FINESTEERING,1992,397114.000,00000820,4e14,14102;INS_ALIGNMENT_COMPLETE,SINGLE,51.77863413197,19.48064400513,221.7453,33.6000,0.0588,0.0463,-0.0005,-0.617409429,1.844175952,42.864501603,33.5401,15.3730,34.6724,4.0088,1.8374,4.1441,3.0000,3.0000,2.7699,00000000,0*36b36e4b
#INSPVAXA,COM1,0,57.5,FINESTEERING,1992,397115.000,00000820,4e14,14102;INS_ALIGNMENT_COMPLETE,PROPAGATED,51.77863487828,19.48064501667,221.7432,33.6000,0.1051,0.0932,-0.0062,-0.614533582,1.842729539,42.855108127,33.5401,15.3730,34.6724,4.0088,1.8374,4.1441,3.0000,3.0000,2.7699,00000000,1*ebe9551e
#INSPVAXA,COM1,0,54.5,FINESTEERING,1992,397116.000,00000820,4e14,14102;INS_ALIGNMENT_COMPLETE,PROPAGATED,51.77864383946,19.48064270163,221.5842,33.6000,0.0438,0.0424,-0.0018,-0.617148810,1.879629667,42.846588475,18.8669,9.5362,21.2500,0.3444,0.3488,0.3434,0.7864,0.7930,2.7717,00000000,2*68a6b06b
#INSPVAXA,COM1,0,54.5,FINESTEERING,1992,397117.000,00000820,4e14,14102;INS_ALIGNMENT_COMPLETE,INS_PSRSP,51.77864906958,19.48064150998,221.4859,33.6000,0.0422,0.0407,-0.0040,-0.616092611,1.903943740,42.839785302,14.8143,7.7497,16.8842,0.1412,0.1422,0.1405,0.6165,0.6292,2.7735,00000015,0*5a6b03a6
#INSPVAXA,COM1,0,53.5,FINESTEERING,1992,397118.000,00000820,4e14,14102;INS_ALIGNMENT_COMPLETE,INS_PSRSP,51.77865228988,19.48064092150,221.4218,33.6000,0.0423,0.0417,-0.0051,-0.609227078,1.923631191,42.833634512,12.6573,6.7417,14.4774,0.1185,0.1263,0.1135,0.4505,0.4567,2.7753,00000015,0*398099d3
#INSPVAXA,COM1,0,53.5,FINESTEERING,1992,397119.000,00000820,4e14,14102;INS_ALIGNMENT_COMPLETE,INS_PSRSP,51.77865461599,19.48064059417,221.3751,33.6000,0.0438,0.0436,-0.0066,-0.609853773,1.936596758,42.829906897,11.2519,6.0597,12.8884,0.1133,0.1240,0.1064,0.3514,0.3534,2.7772,00000015,0*2382e598
#INSPVAXA,COM1,0,55.0,FINESTEERING,1992,397120.000,00000820,4e14,14102;INS_ALIGNMENT_COMPLETE,INS_PSRSP,51.77865642230,19.48064039246,221.3393,33.6000,0.0348,0.0356,-0.0038,-0.609755961,1.956887100,42.825206373,10.2385,5.5556,11.7351,0.0476,0.0486,0.0470,0.2733,0.2734,2.7790,00000015,0*d67a7a3b
#INSPVAXA,COM1,0,54.0,FINESTEERING,1992,397121.000,00000820,4e14,14102;INS_ALIGNMENT_COMPLETE,INS_PSRSP,51.77865789029,19.48064026514,221.3109,33.6000,0.0369,0.0390,-0.0045,-0.612073454,1.969094628,42.820133579,9.4612,5.1614,10.8477,0.0417,0.0433,0.0406,0.2598,0.2598,2.7808,00000015,0*b0a6a97f
#INSPVAXA,COM1,0,54.0,FINESTEERING,1992,397122.000,00000820,4e14,14102;INS_ALIGNMENT_COMPLETE,INS_PSRSP,51.77865912560,19.48064019248,221.2874,33.6000,0.0385,0.0362,-0.0041,-0.602107128,1.987935150,42.813889948,8.8396,4.8417,10.1368,0.0404,0.0423,0.0391,0.2501,0.2501,2.7826,00000015,0*b3b311de
#INSPVAXA,COM1,0,54.5,FINESTEERING,1992,397123.000,00000820,4e14,14102;INS_ALIGNMENT_COMPLETE,INS_PSRSP,51.77866018877,19.48064015621,221.2675,33.6000,0.0348,0.0355,-0.0070,-0.603760408,2.004261119,42.808431551,8.3276,4.5757,9.5504,0.0395,0.0417,0.0381,0.2456,0.2456,2.7844,00000015,0*79119ca9
#INSPVAXA,COM1,0,53.5,FINESTEERING,1992,397124.000,00000820,4e14,14102;INS_ALIGNMENT_COMPLETE,INS_PSRSP,51.77866111880,19.48064014669,221.2501,33.6000,0.0320,0.0358,-0.0064,-0.596348049,2.018686098,42.802517464,7.8641,4.3104,9.0260,0.0388,0.0413,0.0372,0.2430,0.2431,2.7861,00000015,0*ae336479
#INSPVAXA,COM1,0,53.5,FINESTEERING,1992,397125.000,00000820,4e14,14102;INS_ALIGNMENT_COMPLETE,INS_PSRSP,51.77866194261,19.48064015653,221.2346,33.6000,0.0298,0.0358,-0.0054,-0.612503256,2.032685745,42.803841632,7.4712,4.0869,8.5798,0.0383,0.0410,0.0364,0.2408,0.2409,2.7878,00000015,0*a8113e46
#INSPVAXA,COM1,0,54.0,FINESTEERING,1992,397126.000,00000820,4e14,14102;INS_ALIGNMENT_COMPLETE,INS_PSRSP,51.77866268007,19.48064017853,221.2206,33.6000,0.0301,0.0295,-0.0076,-0.611849544,2.045804371,42.806058655,7.1325,3.8952,8.1941,0.0378,0.0410,0.0357,0.2389,0.2389,2.7895,00000015,0*4cdf4a48
#INSPVAXA,COM1,0,54.0,FINESTEERING,1992,397127.000,00000820,4e14,14102;INS_ALIGNMENT_COMPLETE,INS_PSRSP,51.77866334598,19.48064020751,221.2078,33.6000,0.0262,0.0274,-0.0072,-0.617283960,2.060364982,42.802827123,6.7191,3.5962,7.7556,0.0374,0.0409,0.0351,0.2373,0.2373,2.7912,00000015,0*eaddd9ad
#INSPVAXA,COM1,0,55.0,FINESTEERING,1992,397128.000,00000820,4e14,14102;INS_ALIGNMENT_COMPLETE,INS_PSRSP,51.77866395143,19.48064024016,221.1961,33.6000,0.0244,0.0251,-0.0056,-0.621050232,2.074084382,42.801383552,6.3728,3.3586,7.3810,0.0371,0.0409,0.0345,0.2360,0.2360,2.7928,00000015,0*bbab1035
#INSPVAXA,COM1,0,53.5,FINESTEERING,1992,397129.000,00000820,4e14,14102;INS_ALIGNMENT_COMPLETE,INS_PSRSP,51.77866450563,19.48064027421,221.1853,33.6000,0.0223,0.0232,-0.0066,-0.622406133,2.081437684,42.799147493,6.0767,3.1636,7.0560,0.0368,0.0408,0.0340,0.2349,0.2349,2.7944,00000015,0*be7afa22
#INSPVAXA,COM1,0,53.0,FINESTEERING,1992,397130.000,00000820,4e14,14102;INS_ALIGNMENT_COMPLETE,INS_PSRSP,51.77866501597,19.48064030825,221.1753,33.6000,0.0230,0.0211,-0.0074,-0.622053430,2.093867291,42.796954702,5.8192,2.9997,6.7706,0.0365,0.0408,0.0335,0.2340,0.2340,2.7959,00000015,0*32dc7bd4
#INSPVAXA,COM1,0,53.0,FINESTEERING,1992,397131.000,00000820,4e14,14102;INS_ALIGNMENT_COMPLETE,INS_PSRSP,51.77866548853,19.48064034126,221.1661,33.6000,0.0215,0.0190,-0.0075,-0.623091255,2.103501764,42.787956497,5.5926,2.8593,6.5173,0.0363,0.0408,0.0331,0.2332,0.2332,2.7975,00000015,0*b2f904e7
#INSPVAXA,COM1,0,53.5,FINESTEERING,1992,397132.000,00000820,4e14,14102;INS_ALIGNMENT_COMPLETE,INS_PSRSP,51.77866592774,19.48064037250,221.1574,33.6000,0.0194,0.0168,-0.0086,-0.632181549,2.111163081,42.779864623,5.3910,2.7372,6.2906,0.0360,0.0408,0.0327,0.2325,0.2326,2.7990,00000015,0*a86c717c
#INSPVAXA,COM1,0,53.5,FINESTEERING,1992,397133.000,00000820,4e14,14102;INS_ALIGNMENT_COMPLETE,INS_PSRSP,51.77866633738,19.48064040187,221.1492,33.6000,0.0186,0.0155,-0.0090,-0.623686588,2.123930373,42.782434880,5.2100,2.6297,6.0861,0.0358,0.0408,0.0324,0.2319,0.2319,2.8004,00000015,0*1329fe60
#INSPVAXA,COM1,0,54.5,FINESTEERING,1992,397134.000,00000820,4e14,14102;INS_ALIGNMENT_COMPLETE,INS_PSRSP,51.77866672037,19.48064042948,221.1415,33.6000,0.0146,0.0144,-0.0091,-0.616533667,2.134556321,42.783792515,5.0464,2.5342,5.9004,0.0357,0.0407,0.0321,0.2314,0.2314,2.8019,00000015,0*e9244998
#INSPVAXA,COM1,0,50.0,FINESTEERING,1992,397135.000,00000820,4e14,14102;INS_ALIGNMENT_COMPLETE,INS_PSRSP,51.77866707882,19.48064045506,221.1341,33.6000,0.0126,0.0136,-0.0100,-0.623440742,2.147969093,42.781276005,4.8974,2.4485,5.7307,0.0355,0.0407,0.0318,0.2308,0.2308,2.8033,00000015,0*fe591b82
#INSPVAXA,COM1,0,50.0,FINESTEERING,1992,397136.000,00000820,4e14,14102;INS_ALIGNMENT_COMPLETE,INS_PSRSP,51.77866741504,19.48064047821,221.1271,33.6000,0.0125,0.0119,-0.0092,-0.620066186,2.159400631,42.794383282,4.5062,2.2508,5.2547,0.0354,0.0407,0.0316,0.2303,0.2304,2.8047,00000015,0*f207276f
#INSPVAXA,COM1,0,51.5,FINESTEERING,1992,397137.000,00000820,4e14,14102;INS_ALIGNMENT_COMPLETE,INS_PSRSP,51.77866772983,19.48064049625,221.1207,33.6000,0.0058,0.0065,-0.0032,-0.620583018,2.172479373,42.791464581,4.1985,2.0953,4.8816,0.0065,0.0065,0.0065,0.1998,0.1998,2.8060,00000015,0*9bad1278
#INSPVAXA,COM1,0,51.5,FINESTEERING,1992,397138.000,00000820,4e14,14102;INS_ALIGNMENT_COMPLETE,INS_PSRSP,51.77866802378,19.48064050658,221.1153,33.6000,0.0051,0.0035,-0.0036,-0.622588573,2.182285854,42.788491753,3.9475,1.9682,4.5792,0.0063,0.0065,0.0061,0.1606,0.1606,2.8072,00000015,0*ffc1c224
#INSPVAXA,COM1,0,52.0,FINESTEERING,1992,397139.000,00000820,4e14,14102;INS_ALIGNMENT_COMPLETE,INS_PSRSP,51.77866829833,19.48064050920,221.1108,33.6000,0.0024,0.0059,-0.0053,-0.619356779,2.187100436,42.784346142,3.7376,1.8622,4.3275,0.0062,0.0065,0.0061,0.1596,0.1596,2.8085,00000015,0*bc983a08
#INSPVAXA,COM1,0,53.0,FINESTEERING,1992,397140.000,00000820,4e14,14102;INS_ALIGNMENT_COMPLETE,INS_PSRSP,51.77866855497,19.48064050446,221.1072,33.6000,0.0021,0.0034,-0.0043,-0.617166962,2.195474237,42.784137855,3.5586,1.7718,4.1135,0.0062,0.0064,0.0061,0.1590,0.1590,2.8096,00000015,0*6f39336e
#INSPVAXA,COM1,0,52.0,FINESTEERING,1992,397141.000,00000820,4e14,14102;INS_ALIGNMENT_COMPLETE,INS_PSRSP,51.77866879515,19.48064049270,221.1044,33.6000,0.0029,0.0027,-0.0035,-0.624906583,2.192728912,42.789807337,3.4035,1.6935,3.9287,0.0062,0.0064,0.0061,0.1584,0.1584,2.8108,00000015,0*cf12bb73
#INSPVAXA,COM1,0,52.0,FINESTEERING,1992,397142.000,00000820,4e14,14102;INS_ALIGNMENT_COMPLETE,INS_PSRSP,51.77866902015,19.48064047428,221.1025,33.6000,0.0034,0.0010,-0.0042,-0.628650706,2.197432636,42.789629510,3.2673,1.6249,3.7669,0.0062,0.0064,0.0061,0.1578,0.1578,2.8120,00000015,0*af99a18a
#INSPVAXA,COM1,0,52.0,FINESTEERING,1992,397143.000,00000820,4e14,14102;INS_ALIGNMENT_COMPLETE,INS_PSRSP,51.77866923105,19.48064044971,221.1014,33.6000,0.0008,0.0049,-0.0055,-0.627521389,2.196065128,42.790644125,3.1464,1.5641,3.6238,0.0062,0.0064,0.0061,0.1573,0.1573,2.8132,00000015,0*03f2e1d7
#INSPVAXA,COM1,0,52.0,FINESTEERING,1992,397144.000,00000820,4e14,14102;INS_ALIGNMENT_COMPLETE,INS_PSRSP,51.77866942903,19.48064041933,221.1010,33.6000,0.0022,-0.0006,-0.0034,-0.625389842,2.202361523,42.790291150,3.0344,1.5078,3.4925,0.0062,0.0064,0.0061,0.1568,0.1568,2.8143,00000015,0*60677770
#INSPVAXA,COM1,0,52.0,FINESTEERING,1992,397145.000,00000820,4e14,14102;INS_ALIGNMENT_COMPLETE,INS_PSRSP,51.77866962284,19.48064039532,221.1012,33.6000,0.5534,0.5225,-0.0042,-0.596732752,2.698772303,42.847819725,2.9335,1.4572,3.3745,0.0062,0.0064,0.0061,0.1564,0.1564,2.8153,00000015,0*f7cd2ce8
#INSPVAXA,COM1,0,51.5,FINESTEERING,1992,397146.000,00000820,4e14,14102;INS_ALIGNMENT_COMPLETE,INS_PSRSP,51.77868820161,19.48065509021,221.5805,33.6000,2.0137,2.0180,0.0186,-0.838424167,2.735644717,44.382597941,2.8421,1.4114,3.2678,0.0329,0.0485,0.0239,0.2502,0.2502,2.8166,00000015,0*7c6478ac
#INSPVAXA,COM1,0,48.5,FINESTEERING,1992,397147.000,00000820,4e14,14102;INS_ALIGNMENT_COMPLETE,INS_PSRSP,51.77870743370,19.48068019167,222.5082,33.6000,1.9361,2.3477,0.0550,-0.980314564,2.005005411,49.464660830,2.7595,1.3700,3.1707,0.0826,0.1474,0.0548,0.3174,0.3174,2.8178,00000011,0*aed7523c
#INSPVAXA,COM1,0,48.5,FINESTEERING,1992,397148.000,00000820,4e14,14102;INS_ALIGNMENT_COMPLETE,INS_PSRSP,51.77872047102,19.48070697646,222.7276,33.6000,0.9379,1.3776,0.0128,-0.974877952,1.831781059,54.421215769,2.6884,1.3387,3.0819,0.1158,0.1899,0.0772,0.3727,0.3727,2.8179,00000011,0*890d3bbf
#INSPVAXA,COM1,0,52.0,FINESTEERING,1992,397149.000,00000820,4e14,14102;INS_ALIGNMENT_COMPLETE,INS_PSRSP,51.77872363627,19.48071637197,223.0104,33.6000,0.3077,0.4888,-0.0087,-0.776781906,1.903269146,57.163777533,2.1309,1.0463,2.5637,0.1498,0.2014,0.1137,0.4195,0.4205,2.7979,00000011,0*c528db15
#INSPVAXA,COM1,0,51.5,FINESTEERING,1992,397150.000,00000820,4e14,14102;INS_ALIGNMENT_COMPLETE,INS_PSRSP,51.77872426431,19.48071797188,223.0430,33.6000,0.0135,0.0033,-0.0225,-0.861510334,2.111711462,57.199532965,2.1203,1.0693,2.5165,0.1950,0.2531,0.1595,0.4624,0.4635,2.7965,00000011,0*bcf63bd1
#INSPVAXA,COM1,0,51.5,FINESTEERING,1992,397151.000,00000820,4e14,14102;INS_ALIGNMENT_COMPLETE,INS_PSRSP,51.77872416875,19.48071764876,223.0530,33.6000,-0.0002,-0.0164,-0.0215,-0.855822347,2.087373228,57.198981610,2.1346,1.1398,2.4718,0.2466,0.3226,0.2067,0.5006,0.5026,2.7949,00000011,0*a55f2494
#INSPVAXA,COM1,0,52.0,FINESTEERING,1992,397152.000,00000820,4e14,14102;INS_ALIGNMENT_COMPLETE,INS_PSRSP,51.77872403171,19.48071725837,223.0574,33.6000,-0.0009,-0.0186,-0.0249,-0.853464705,2.093226862,57.199238286,2.1928,1.2783,2.4296,0.3035,0.3971,0.2524,0.5339,0.5381,2.7939,00000011,0*92679d49
#INSPVAXA,COM1,0,52.5,FINESTEERING,1992,397153.000,00000820,4e14,14102;INS_ALIGNMENT_COMPLETE,INS_PSRSP,51.77872393725,19.48071762672,223.0669,33.6000,0.0005,-0.0021,-0.0255,-0.848050835,2.091939879,57.202567436,2.0318,1.0383,2.3897,0.0603,0.0757,0.0512,0.2786,0.2790,2.7907,00000011,0*eab302e1
#INSPVAXA,COM1,0,52.5,FINESTEERING,1992,397154.000,00000820,4e14,14102;INS_ALIGNMENT_COMPLETE,INS_PSRSP,51.77872381257,19.48071745442,223.0810,33.6000,-0.0024,-0.0033,-0.0240,-0.846819275,2.093540994,57.207221497,2.0037,1.0271,2.3517,0.0436,0.0531,0.0380,0.2701,0.2705,2.7893,00000015,0*524d40a9
#INSPVAXA,COM1,0,54.0,FINESTEERING,1992,397155.000,00000820,4e14,14102;INS_ALIGNMENT_COMPLETE,INS_PSRSP,51.77872317382,19.48071643504,223.1988,33.6000,-0.0016,-0.0041,-0.0242,-0.846226886,2.094382944,57.209733001,1.7390,0.8728,2.1001,0.0406,0.0489,0.0354,0.2543,0.2549,2.7756,00000015,0*a69a0447
#INSPVAXA,COM1,0,52.0,FINESTEERING,1992,397156.000,00000820,4e14,14102;INS_ALIGNMENT_COMPLETE,INS_PSRSP,51.77872319044,19.48071579122,223.3117,33.6000,-0.0044,-0.0059,-0.0219,-0.844654135,2.094036938,57.207412352,1.5500,0.7718,1.9139,0.0407,0.0488,0.0351,0.2432,0.2435,2.7678,00000015,0*31ebe2f3
#INSPVAXA,COM1,0,52.0,FINESTEERING,1992,397157.000,00000820,4e14,14102;INS_ALIGNMENT_COMPLETE,INS_PSRSP,51.77872299235,19.48071539821,223.3788,33.6000,-0.0012,-0.0052,-0.0224,-0.843728012,2.102880342,57.208288314,1.4119,0.6997,1.7705,0.0358,0.0422,0.0312,0.2295,0.2297,2.7630,00000015,0*80291628
#INSPVAXA,COM1,0,52.5,FINESTEERING,1992,397158.000,00000820,4e14,14102;INS_ALIGNMENT_COMPLETE,INS_PSRSP,51.77872298826,19.48071529574,223.3935,33.6000,-0.0036,-0.0056,-0.0213,-0.844835533,2.105163283,57.220539718,1.3047,0.6451,1.6553,0.0346,0.0408,0.0302,0.2282,0.2282,2.7601,00000015,0*eeb8f2f5
#INSPVAXA,COM1,0,52.5,FINESTEERING,1992,397159.000,00000820,4e14,14102;INS_ALIGNMENT_COMPLETE,INS_PSRSP,51.77872298518,19.48071522322,223.4001,33.6000,-0.0038,-0.0070,-0.0215,-0.844490183,2.104146586,57.219512400,1.2188,0.6019,1.5604,0.0344,0.0406,0.0299,0.2266,0.2267,2.7583,00000015,0*b88859c3
#INSPVAXA,COM1,0,50.5,FINESTEERING,1992,397160.000,00000820,4e14,14102;INS_ALIGNMENT_COMPLETE,INS_PSRSP,51.77872297689,19.48071516281,223.4035,33.6000,-0.0034,-0.0049,-0.0212,-0.830818926,2.100612740,57.223860168,1.1480,0.5668,1.4803,0.0343,0.0406,0.0297,0.2256,0.2256,2.7572,00000015,0*7654d927
#INSPVAXA,COM1,0,50.5,FINESTEERING,1992,397161.000,00000820,4e14,14102;INS_ALIGNMENT_COMPLETE,INS_PSRSP,51.77872296600,19.48071511041,223.4053,33.6000,-0.0060,-0.0063,-0.0206,-0.833516166,2.109577833,57.221912355,1.0884,0.5376,1.4116,0.0342,0.0406,0.0296,0.2251,0.2251,2.7567,00000015,0*51d2aaac
#INSPVAXA,COM1,0,50.5,FINESTEERING,1992,397162.000,00000820,4e14,14102;INS_ALIGNMENT_COMPLETE,INS_PSRSP,51.77872295510,19.48071506159,223.4065,33.6000,-0.0055,-0.0052,-0.0174,-0.828815940,2.108055426,57.222369775,1.0374,0.5130,1.3518,0.0341,0.0406,0.0295,0.2248,0.2248,2.7566,00000015,0*dfc687e5
#INSPVAXA,COM1,0,52.5,FINESTEERING,1992,397163.000,00000820,4e14,14102;INS_ALIGNMENT_COMPLETE,INS_PSRSP,51.77872294661,19.48071501578,223.4091,33.6000,-0.0048,-0.0058,-0.0027,-0.831910910,2.118368611,57.227050541,0.9929,0.4914,1.2967,0.0064,0.0064,0.0064,0.1927,0.1928,2.7567,00000015,0*15c98802
#INSPVAXA,COM1,0,53.0,FINESTEERING,1992,397164.000,00000820,4e14,14102;INS_ALIGNMENT_COMPLETE,INS_PSRSP,51.77872293939,19.48071497240,223.4136,33.6000,-0.0091,-0.0047,-0.0019,-0.820157797,2.120558109,57.234977761,0.9528,0.4705,1.2494,0.0062,0.0064,0.0061,0.1530,0.1530,2.7571,00000015,0*117b8e18
#INSPVAXA,COM1,0,53.0,FINESTEERING,1992,397165.000,00000820,4e14,14102;INS_ALIGNMENT_COMPLETE,INS_PSRSP,51.77872293308,19.48071493154,223.4191,33.6000,-0.0061,-0.0059,-0.0027,-0.822585558,2.114556749,57.229630074,0.9174,0.4525,1.2070,0.0062,0.0064,0.0060,0.1523,0.1523,2.7575,00000015,0*e220b91b
#INSPVAXA,COM1,0,52.5,FINESTEERING,1992,397166.000,00000820,4e14,14102;INS_ALIGNMENT_COMPLETE,INS_PSRSP,51.77872292783,19.48071489404,223.4249,33.6000,-0.0084,-0.0039,-0.0020,-0.832400178,2.109310842,57.239478504,0.8856,0.4365,1.1686,0.0062,0.0064,0.0060,0.1520,0.1521,2.7581,00000015,0*28703b99
#INSPVAXA,COM1,0,52.5,FINESTEERING,1992,397167.000,00000820,4e14,14102;INS_ALIGNMENT_COMPLETE,INS_PSRSP,51.77872292417,19.48071486055,223.4309,33.6000,-0.0050,-0.0016,-0.0006,-0.831351340,2.098745250,57.243685856,0.8570,0.4220,1.1337,0.0062,0.0064,0.0060,0.1518,0.1518,2.7588,00000015,0*4c212a64
#INSPVAXA,COM1,0,52.5,FINESTEERING,1992,397168.000,00000820,4e14,14102;INS_ALIGNMENT_COMPLETE,INS_PSRSP,51.77872292361,19.48071482918,223.4368,33.6000,-0.0017,-0.0035,-0.0034,-0.833336262,2.088229209,57.242610689,0.8285,0.4086,1.1017,0.0062,0.0064,0.0060,0.1515,0.1515,2.7596,00000015,0*15a03dce
#INSPVAXA,COM1,0,53.0,FINESTEERING,1992,397169.000,00000820,4e14,14102;INS_ALIGNMENT_COMPLETE,INS_PSRSP,51.77872292589,19.48071480039,223.4425,33.6000,-0.0033,0.0005,-0.0040,-0.839605375,2.085536803,57.243726642,0.8027,0.3964,1.0723,0.0062,0.0064,0.0060,0.1512,0.1513,2.7603,00000015,0*145f9796
#INSPVAXA,COM1,0,54.0,FINESTEERING,1992,397170.000,00000820,4e14,14102;INS_ALIGNMENT_COMPLETE,INS_PSRSP,51.77872293073,19.48071477364,223.4480,33.6000,-0.0017,-0.0027,-0.0036,-0.842159498,2.083977563,57.246015117,0.7790,0.3852,1.0449,0.0062,0.0064,0.0060,0.1510,0.1510,2.7612,00000015,0*b2183cb3
#INSPVAXA,COM1,0,53.5,FINESTEERING,1992,397171.000,00000820,4e14,14102;INS_ALIGNMENT_COMPLETE,INS_PSRSP,51.77872293825,19.48071474702,223.4534,33.6000,-0.0009,-0.0038,-0.0053,-0.846826277,2.093092277,57.246952548,0.7573,0.3749,1.0194,0.0062,0.0064,0.0060,0.1507,0.1508,2.7622,00000015,0*f3bd2632
#INSPVAXA,COM1,0,51.5,FINESTEERING,1992,397172.000,00000820,4e14,14102;INS_ALIGNMENT_COMPLETE,INS_PSRSP,51.77872294796,19.48071471986,223.4586,33.6000,-0.0019,-0.0060,-0.0027,-0.843810210,2.089850844,57.256849249,0.7373,0.3654,0.9951,0.0062,0.0064,0.0060,0.1505,0.1505,2.7631,00000015,0*97cc9fb1
#INSPVAXA,COM1,0,51.5,FINESTEERING,1992,397173.000,00000820,4e14,14102;INS_ALIGNMENT_COMPLETE,INS_PSRSP,51.77872295947,19.48071469361,223.4636,33.6000,-0.0001,-0.0012,-0.0037,-0.841255215,2.080166509,57.264887225,0.7188,0.3566,0.9725,0.0062,0.0064,0.0060,0.1503,0.1503,2.7641,00000015,0*df185e7e
#INSPVAXA,COM1,0,52.5,FINESTEERING,1992,397174.000,00000820,4e14,14102;INS_ALIGNMENT_COMPLETE,INS_PSRSP,51.77872297202,19.48071466961,223.4684,33.6000,-0.0031,-0.0029,-0.0046,-0.840091800,2.078178245,57.270950372,0.7016,0.3484,0.9514,0.0062,0.0064,0.0060,0.1500,0.1500,2.7651,00000015,0*491a0be0
#INSPVAXA,COM1,0,52.5,FINESTEERING,1992,397175.000,00000820,4e14,14102;INS_ALIGNMENT_COMPLETE,INS_PSRSP,51.77872298526,19.48071464731,223.4730,33.6000,0.0009,-0.0015,-0.0030,-0.840320891,2.078008539,57.268311534,0.6853,0.3406,0.9311,0.0047,0.0050,0.0045,0.0652,0.0652,2.7655,00000015,0*c694ec3e
#INSPVAXA,COM1,0,53.5,FINESTEERING,1992,397176.000,00000820,4e14,14102;INS_SOLUTION_GOOD,INS_PSRSP,51.77872299902,19.48071462643,223.4774,33.6000,-0.0043,-0.0015,0.0010,-0.828315314,2.082169767,57.285458180,0.6701,0.3332,0.9121,0.0048,0.0046,0.0048,0.0497,0.0496,2.7636,00000055,0*f6c19957
#INSPVAXA,COM1,0,53.0,FINESTEERING,1992,397177.000,00000820,4e14,14102;INS_SOLUTION_GOOD,INS_PSRSP,51.77872301263,19.48071460722,223.4818,33.6000,-0.0001,-0.0006,-0.0001,-0.846422953,2.077678345,57.269267694,0.6428,0.3235,0.8669,0.0044,0.0044,0.0045,0.0466,0.0463,2.7620,00000055,0*1e8e5864
#INSPVAXA,COM1,0,50.5,FINESTEERING,1992,397178.000,00000820,4e14,14102;INS_SOLUTION_GOOD,INS_PSRSP,51.77872302637,19.48071458993,223.4861,33.6000,-0.0028,-0.0007,0.0004,-0.833226400,2.073584870,57.266682535,0.6182,0.3146,0.8269,0.0042,0.0042,0.0042,0.0459,0.0456,2.7610,00000055,0*5a807f13
#INSPVAXA,COM1,0,50.5,FINESTEERING,1992,397179.000,00000820,4e14,14102;INS_SOLUTION_GOOD,INS_PSRSP,51.77872303999,19.48071457467,223.4903,33.6000,-0.0018,-0.0007,0.0009,-0.840746128,2.069590960,57.258242833,0.5959,0.3064,0.7912,0.0040,0.0042,0.0040,0.0456,0.0453,2.7605,00000055,0*d21062bb
#INSPVAXA,COM1,0,50.0,FINESTEERING,1992,397180.000,00000820,4e14,14102;INS_SOLUTION_GOOD,INS_PSRSP,51.77872305370,19.48071456148,223.4943,33.6000,0.0005,-0.0007,0.0017,-0.851272652,2.070495747,57.268027568,0.5757,0.2989,0.7590,0.0039,0.0042,0.0038,0.0453,0.0449,2.7601,00000055,0*a0a0793e
#INSPVAXA,COM1,0,50.0,FINESTEERING,1992,397181.000,00000820,4e14,14102;INS_SOLUTION_GOOD,INS_PSRSP,51.77872306769,19.48071455015,223.4981,33.6000,-0.0012,-0.0019,0.0009,-0.846836777,2.070995158,57.274633399,0.5548,0.2904,0.7296,0.0039,0.0042,0.0037,0.0450,0.0446,2.7595,00000055,0*afdf8a78
#INSPVAXA,COM1,0,53.0,FINESTEERING,1992,397182.000,00000820,4e14,14102;INS_SOLUTION_GOOD,INS_PSRSP,51.77872308197,19.48071454027,223.5018,33.6000,0.0003,-0.0017,0.0019,-0.844505873,2.067401567,57.293305923,0.5358,0.2827,0.7028,0.0038,0.0042,0.0036,0.0447,0.0443,2.7593,00000055,0*f787474f
#INSPVAXA,COM1,0,52.0,FINESTEERING,1992,397183.000,00000820,4e14,14102;INS_SOLUTION_GOOD,INS_PSRSP,51.77872309664,19.48071453195,223.5054,33.6000,-0.0013,-0.0013,0.0013,-0.834555957,2.068527614,57.302975113,0.5184,0.2756,0.6783,0.0038,0.0042,0.0035,0.0443,0.0440,2.7591,00000055,0*8671891a
#INSPVAXA,COM1,0,34.5,FINESTEERING,1992,397184.000,00000020,4e14,14102;INS_SOLUTION_GOOD,INS_PSRSP,51.77872311152,19.48071452569,223.5087,33.6000,-0.0019,0.0011,0.0009,-0.832109039,2.068043687,57.296866268,0.5025,0.2690,0.6558,0.0038,0.0042,0.0035,0.0440,0.0437,2.7588,00000055,0*20388684
#INSPVAXA,COM1,0,34.5,FINESTEERING,1992,397185.000,00000020,4e14,14102;INS_SOLUTION_GOOD,INS_PSRSP,51.77872312646,19.48071452195,223.5119,33.6000,-0.0014,0.0026,0.0003,-0.841216756,2.066993219,57.304725413,0.4877,0.2629,0.6350,0.0037,0.0042,0.0035,0.0438,0.0434,2.7584,00000055,0*925c6343
#INSPVAXA,COM1,0,48.5,FINESTEERING,1992,397186.000,00000020,4e14,14102;INS_SOLUTION_GOOD,INS_PSRSP,51.77872314151,19.48071452050,223.5150,33.6000,-0.0005,-0.0000,0.0002,-0.846957336,2.075440064,57.307526523,0.4741,0.2573,0.6158,0.0037,0.0042,0.0034,0.0435,0.0432,2.7579,00000055,0*b426b107
#INSPVAXA,COM1,0,48.5,FINESTEERING,1992,397187.000,00000020,4e14,14102;INS_SOLUTION_GOOD,INS_PSRSP,51.77872315672,19.48071452068,223.5178,33.6000,-0.0012,0.0005,0.0010,-0.842106667,2.071541380,57.306380496,0.4615,0.2520,0.5979,0.0037,0.0042,0.0034,0.0432,0.0429,2.7577,00000055,0*6a8417e1
#INSPVAXA,COM1,0,49.0,FINESTEERING,1992,397188.000,00000020,4e14,14102;INS_SOLUTION_GOOD,INS_PSRSP,51.77872317211,19.48071452248,223.5205,33.6000,-0.0006,-0.0007,-0.0017,-0.841837417,2.075487996,57.306148936,0.4497,0.2470,0.5812,0.0037,0.0042,0.0034,0.0430,0.0426,2.7576,00000055,0*c25d30e2
#INSPVAXA,COM1,0,49.0,FINESTEERING,1992,397189.000,00000020,4e14,14102;INS_SOLUTION_GOOD,INS_PSRSP,51.77872318779,19.48071452572,223.5230,33.6000,0.0001,-0.0001,-0.0042,-0.840522244,2.074953371,57.306993629,0.4386,0.2423,0.5656,0.0037,0.0042,0.0034,0.0427,0.0424,2.7575,00000055,0*d728fecf
#INSPVAXA,COM1,0,49.5,FINESTEERING,1992,397190.000,00000820,4e14,14102;INS_SOLUTION_GOOD,INS_PSRSP,51.77872320358,19.48071453022,223.5253,33.6000,-0.0009,-0.0015,-0.0061,-0.841656508,2.080160943,57.306537584,0.4283,0.2379,0.5510,0.0037,0.0042,0.0034,0.0425,0.0422,2.7574,00000055,0*b5750922
#INSPVAXA,COM1,0,49.5,FINESTEERING,1992,397191.000,00000820,4e14,14102;INS_SOLUTION_GOOD,INS_PSRSP,51.77872321938,19.48071453579,223.5272,33.6000,-0.0006,0.0008,-0.0087,-0.845441770,2.074217921,57.313164004,0.4185,0.2338,0.5372,0.0037,0.0041,0.0034,0.0422,0.0419,2.7573,00000055,0*4a5c0b28
#INSPVAXA,COM1,0,52.0,FINESTEERING,1992,397192.000,00000820,4e14,14102;INS_SOLUTION_GOOD,INS_PSRSP,51.77872323535,19.48071454238,223.5288,33.6000,0.0016,-0.0011,-0.0092,-0.848898498,2.080849646,57.322498855,0.4094,0.2298,0.5243,0.0037,0.0041,0.0034,0.0420,0.0417,2.7572,00000055,0*117abcc6
#INSPVAXA,COM1,0,52.0,FINESTEERING,1992,397193.000,00000820,4e14,14102;INS_SOLUTION_GOOD,INS_PSRSP,51.77872325161,19.48071454971,223.5301,33.6000,0.0012,0.0004,-0.0097,-0.849793791,2.092894015,57.318236828,0.4009,0.2261,0.5124,0.0037,0.0041,0.0034,0.0418,0.0415,2.7569,00000055,0*1397e27e
#INSPVAXA,COM1,0,32.5,FINESTEERING,1992,397194.000,00000020,4e14,14102;INS_SOLUTION_GOOD,INS_PSRSP,51.77872326805,19.48071455740,223.5311,33.6000,-0.0021,-0.0007,-0.0091,-0.837271018,2.081936703,57.317088161,0.3929,0.2226,0.5012,0.0037,0.0041,0.0034,0.0416,0.0413,2.7567,00000055,0*82004880
#INSPVAXA,COM1,0,32.5,FINESTEERING,1992,397195.000,00000020,4e14,14102;INS_SOLUTION_GOOD,INS_PSRSP,51.77872328453,19.48071456525,223.5319,33.6000,0.0022,-0.0001,-0.0079,-0.846905903,2.075230686,57.321069819,0.3853,0.2192,0.4907,0.0037,0.0041,0.0034,0.0414,0.0411,2.7563,00000055,0*b0b81d75
#INSPVAXA,COM1,0,47.5,FINESTEERING,1992,397196.000,00000020,4e14,14102;INS_SOLUTION_GOOD,INS_PSRSP,51.77872330107,19.48071457402,223.5325,33.6000,-0.0001,0.0028,-0.0073,-0.842878073,2.071816067,57.325836972,0.3782,0.2160,0.4809,0.0037,0.0041,0.0034,0.0412,0.0408,2.7561,00000055,0*ec512ebb
#INSPVAXA,COM1,0,47.5,FINESTEERING,1992,397197.000,00000020,4e14,14102;INS_SOLUTION_GOOD,INS_PSRSP,51.77872331756,19.48071458403,223.5329,33.6000,0.0008,0.0009,-0.0050,-0.847045824,2.083059121,57.327283939,0.3715,0.2129,0.4716,0.0037,0.0041,0.0034,0.0410,0.0406,2.7556,00000055,0*5d0d7b4a
#INSPVAXA,COM1,0,50.5,FINESTEERING,1992,397198.000,00000020,4e14,14102;INS_SOLUTION_GOOD,INS_PSRSP,51.77872333389,19.48071459482,223.5331,33.6000,-0.0020,-0.0004,-0.0040,-0.841351680,2.082019167,57.332479078,0.3652,0.2100,0.4629,0.0037,0.0041,0.0034,0.0408,0.0404,2.7556,00000055,0*c3e38ddb
#INSPVAXA,COM1,0,50.5,FINESTEERING,1992,397199.000,00000020,4e14,14102;INS_SOLUTION_GOOD,INS_PSRSP,51.77872334999,19.48071460609,223.5333,33.6000,-0.0009,-0.0004,-0.0047,-0.842944979,2.078428966,57.324770933,0.3591,0.2072,0.4546,0.0037,0.0041,0.0034,0.0406,0.0402,2.7555,00000055,0*30dc75c6
#INSPVAXA,COM1,0,48.0,FINESTEERING,1992,397200.000,00000020,4e14,14102;INS_SOLUTION_GOOD,INS_PSRSP,51.77872336585,19.48071461767,223.5334,33.6000,-0.0005,-0.0006,-0.0013,-0.844664025,2.082836943,57.339200463,0.3534,0.2045,0.4468,0.0037,0.0041,0.0034,0.0404,0.0401,2.7553,00000055,0*e5bffbd5
#INSPVAXA,COM1,0,48.0,FINESTEERING,1992,397201.000,00000020,4e14,14102;INS_SOLUTION_GOOD,INS_PSRSP,51.77872338141,19.48071462939,223.5334,33.6000,-0.0017,-0.0020,-0.0013,-0.848175220,2.086649658,57.331920738,0.3479,0.2019,0.4393,0.0037,0.0041,0.0034,0.0402,0.0399,2.7553,00000055,0*ef5e8341
#INSPVAXA,COM1,0,49.0,FINESTEERING,1992,397202.000,00000020,4e14,14102;INS_SOLUTION_GOOD,INS_PSRSP,51.77872339654,19.48071464103,223.5335,33.6000,-0.0005,-0.0018,-0.0006,-0.859505657,2.078858505,57.348339169,0.3427,0.1994,0.4323,0.0037,0.0041,0.0034,0.0400,0.0397,2.7551,00000055,0*870f5d36
#INSPVAXA,COM1,0,49.0,FINESTEERING,1992,397203.000,00000020,4e14,14102;INS_SOLUTION_GOOD,INS_PSRSP,51.77872341149,19.48071465258,223.5335,33.6000,0.0017,-0.0011,-0.0008,-0.865099931,2.081483520,57.359061734,0.3378,0.1970,0.4255,0.0037,0.0041,0.0034,0.0398,0.0395,2.7549,00000055,0*6addb026
#INSPVAXA,COM1,0,49.5,FINESTEERING,1992,397204.000,00000020,4e14,14102;INS_SOLUTION_GOOD,INS_PSRSP,51.77872342658,19.48071466419,223.5335,33.6000,0.0037,-0.0012,-0.0004,-0.857004900,2.087404650,57.358765918,0.3330,0.1947,0.4191,0.0037,0.0041,0.0034,0.0396,0.0393,2.7546,00000055,0*2c72d6a0
#INSPVAXA,COM1,0,49.5,FINESTEERING,1992,397205.000,00000020,4e14,14102;INS_SOLUTION_GOOD,INS_PSRSP,51.77872344180,19.48071467580,223.5335,33.6000,-0.0008,-0.0023,-0.0009,-0.842784496,2.095126825,57.373096245,0.3284,0.1925,0.4129,0.0037,0.0041,0.0034,0.0394,0.0391,2.7543,00000055,0*0a576094
#INSPVAXA,COM1,0,50.5,FINESTEERING,1992,397206.000,00000020,4e14,14102;INS_SOLUTION_GOOD,INS_PSRSP,51.77872345685,19.48071468745,223.5335,33.6000,-0.0017,-0.0011,0.0003,-0.840578057,2.097908292,57.358391718,0.3240,0.1903,0.4071,0.0037,0.0041,0.0034,0.0392,0.0390,2.7540,00000055,0*e6fd9731
#INSPVAXA,COM1,0,47.5,FINESTEERING,1992,397207.000,00000020,4e14,14102;INS_SOLUTION_GOOD,INS_PSRSP,51.77872347164,19.48071469916,223.5335,33.6000,-0.0020,-0.0026,0.0011,-0.841383283,2.093559129,57.350498034,0.3198,0.1882,0.4014,0.0037,0.0041,0.0034,0.0391,0.0388,2.7534,00000055,0*52f1a257
#INSPVAXA,COM1,0,47.5,FINESTEERING,1992,397208.000,00000020,4e14,14102;INS_SOLUTION_GOOD,INS_PSRSP,51.77872348609,19.48071471095,223.5335,33.6000,-0.0030,-0.0016,0.0011,-0.840168556,2.086309915,57.341103450,0.3158,0.1862,0.3960,0.0037,0.0041,0.0034,0.0389,0.0386,2.7532,00000055,0*34b20ca7
#INSPVAXA,COM1,0,48.5,FINESTEERING,1992,397209.000,00000020,4e14,14102;INS_SOLUTION_GOOD,INS_PSRSP,51.77872350021,19.48071472299,223.5335,33.6000,-0.0015,-0.0013,0.0001,-0.841577180,2.078447385,57.330710049,0.3119,0.1843,0.3908,0.0037,0.0041,0.0034,0.0387,0.0385,2.7531,00000055,0*b1ecde80
#INSPVAXA,COM1,0,48.5,FINESTEERING,1992,397210.000,00000020,4e14,14102;INS_SOLUTION_GOOD,INS_PSRSP,51.77872351410,19.48071473530,223.5335,33.6000,-0.0005,-0.0012,0.0020,-0.843565353,2.077296470,57.337842017,0.3082,0.1824,0.3858,0.0037,0.0041,0.0034,0.0386,0.0383,2.7529,00000055,0*f4f7e5ab
#INSPVAXA,COM1,0,49.0,FINESTEERING,1992,397211.000,00000020,4e14,14102;INS_SOLUTION_GOOD,INS_PSRSP,51.77872352780,19.48071474793,223.5336,33.6000,-0.0002,0.0007,0.0052,-0.837699964,2.081978449,57.335665160,0.3046,0.1806,0.3810,0.0037,0.0041,0.0034,0.0384,0.0381,2.7525,00000055,0*d2caebc9
#INSPVAXA,COM1,0,49.0,FINESTEERING,1992,397212.000,00000020,4e14,14102;INS_SOLUTION_GOOD,INS_PSRSP,51.77872354126,19.48071476084,223.5337,33.6000,-0.0024,-0.0009,0.0063,-0.842523394,2.086392088,57.336720528,0.3011,0.1788,0.3764,0.0037,0.0041,0.0034,0.0383,0.0380,2.7523,00000055,0*f502d2b8
#INSPVAXA,COM1,0,49.5,FINESTEERING,1992,397213.000,00000020,4e14,14102;INS_SOLUTION_GOOD,INS_PSRSP,51.77872355442,19.48071477382,223.5339,33.6000,-0.0010,-0.0013,0.0095,-0.846127739,2.084520653,57.340523381,0.2977,0.1771,0.3720,0.0037,0.0041,0.0034,0.0381,0.0378,2.7522,00000055,0*e2b768d2
#INSPVAXA,COM1,0,50.0,FINESTEERING,1992,397214.000,00000020,4e14,14102;INS_SOLUTION_GOOD,INS_PSRSP,51.77872356735,19.48071478679,223.5342,33.6000,0.0009,-0.0031,0.0100,-0.839833496,2.085953387,57.348570586,0.2945,0.1755,0.3677,0.0037,0.0041,0.0034,0.0379,0.0377,2.7521,00000055,0*eb49dba5
#INSPVAXA,COM1,0,49.5,FINESTEERING,1992,397215.000,00000020,4e14,14102;INS_SOLUTION_GOOD,INS_PSRSP,51.77872357997,19.48071479981,223.5347,33.6000,-0.0037,0.0003,0.0086,-0.840303264,2.077178843,57.355329204,0.2914,0.1739,0.3635,0.0037,0.0041,0.0034,0.0378,0.0375,2.7517,00000055,0*abcc9b4e
#INSPVAXA,COM1,0,49.0,FINESTEERING,1992,397216.000,00000020,4e14,14102;INS_SOLUTION_GOOD,INS_PSRSP,51.77872359230,19.48071481317,223.5353,33.6000,-0.0002,0.0002,0.0075,-0.849032261,2.074442281,57.344279494,0.2883,0.1723,0.3595,0.0037,0.0041,0.0034,0.0377,0.0374,2.7514,00000055,0*6ef983b8
#INSPVAXA,COM1,0,49.0,FINESTEERING,1992,397217.000,00000020,4e14,14102;INS_SOLUTION_GOOD,INS_PSRSP,51.77872360457,19.48071482677,223.5359,33.6000,0.0003,-0.0010,0.0062,-0.845416822,2.070916930,57.343805441,0.2854,0.1708,0.3556,0.0037,0.0041,0.0034,0.0376,0.0373,2.7513,00000055,0*68e6dbc2
#INSPVAXA,COM1,0,49.0,FINESTEERING,1992,397218.000,00000020,4e14,14102;INS_SOLUTION_GOOD,INS_PSRSP,51.77872361680,19.48071484063,223.5366,33.6000,0.0011,0.0000,0.0041,-0.857297725,2.066065869,57.359570087,0.2825,0.1694,0.3519,0.0037,0.0041,0.0034,0.0374,0.0371,2.7513,00000055,0*5ea4fe0c
#INSPVAXA,COM1,0,49.0,FINESTEERING,1992,397219.000,00000020,4e14,14102;INS_SOLUTION_GOOD,INS_PSRSP,51.77872362903,19.48071485471,223.5373,33.6000,0.0016,-0.0004,0.0041,-0.851143629,2.067772628,57.361381901,0.2798,0.1679,0.3482,0.0037,0.0041,0.0034,0.0373,0.0370,2.7511,00000055,0*50139712
#INSPVAXA,COM1,0,49.0,FINESTEERING,1992,397220.000,00000020,4e14,14102;INS_SOLUTION_GOOD,INS_PSRSP,51.77872364132,19.48071486900,223.5380,33.6000,0.0015,0.0014,0.0026,-0.842079432,2.070200808,57.370394278,0.2771,0.1665,0.3447,0.0037,0.0041,0.0034,0.0372,0.0369,2.7510,00000055,0*15e9c574
#INSPVAXA,COM1,0,49.0,FINESTEERING,1992,397221.000,00000020,4e14,14102;INS_SOLUTION_GOOD,INS_PSRSP,51.77872365363,19.48071488366,223.5387,33.6000,-0.0009,0.0013,0.0014,-0.836284845,2.074836369,57.372106400,0.2745,0.1652,0.3413,0.0037,0.0041,0.0034,0.0370,0.0367,2.7510,00000055,0*955240ed
#INSPVAXA,COM1,0,50.0,FINESTEERING,1992,397222.000,00000020,4e14,14102;INS_SOLUTION_GOOD,INS_PSRSP,51.77872366588,19.48071489869,223.5394,33.6000,0.0013,0.0020,0.0017,-0.841078022,2.073844327,57.373998191,0.2720,0.1639,0.3380,0.0037,0.0041,0.0034,0.0369,0.0366,2.7507,00000055,0*41fa25b1
#INSPVAXA,COM1,0,49.5,FINESTEERING,1992,397223.000,00000020,4e14,14102;INS_SOLUTION_GOOD,INS_PSRSP,51.77872367808,19.48071491429,223.5401,33.6000,-0.0009,0.0028,0.0026,-0.837593002,2.088386277,57.380293481,0.2695,0.1626,0.3347,0.0037,0.0041,0.0034,0.0368,0.0365,2.7506,00000055,0*ddee59d4
#INSPVAXA,COM1,0,48.5,FINESTEERING,1992,397224.000,00000020,4e14,14102;INS_SOLUTION_GOOD,INS_PSRSP,51.77872369014,19.48071493037,223.5408,33.6000,-0.0020,0.0002,0.0024,-0.840184450,2.090339393,57.385993637,0.2672,0.1613,0.3316,0.0037,0.0041,0.0034,0.0366,0.0364,2.7505,00000055,0*cea3607e
#INSPVAXA,COM1,0,48.5,FINESTEERING,1992,397225.000,00000020,4e14,14102;INS_SOLUTION_GOOD,INS_PSRSP,51.77872370202,19.48071494659,223.5414,33.6000,-0.0002,-0.0021,0.0027,-0.840691306,2.084069047,57.387779020,0.2648,0.1601,0.3286,0.0037,0.0041,0.0034,0.0365,0.0362,2.7504,00000055,0*d2766c5e
#INSPVAXA,COM1,0,49.5,FINESTEERING,1992,397226.000,00000020,4e14,14102;INS_SOLUTION_GOOD,INS_PSRSP,51.77872371400,19.48071496274,223.5421,33.6000,0.0045,-0.0008,0.0014,-0.836296086,2.084947985,57.396601358,0.2626,0.1590,0.3256,0.0037,0.0041,0.0034,0.0364,0.0361,2.7500,00000055,0*0a03b9f4
#INSPVAXA,COM1,0,49.5,FINESTEERING,1992,397227.000,00000020,4e14,14102;INS_SOLUTION_GOOD,INS_PSRSP,51.77872372626,19.48071497877,223.5428,33.6000,0.0028,-0.0025,0.0033,-0.825691527,2.086600260,57.389666407,0.2604,0.1578,0.3227,0.0037,0.0041,0.0034,0.0362,0.0360,2.7491,00000055,0*f9833999
#INSPVAXA,COM1,0,50.0,FINESTEERING,1992,397228.000,00000020,4e14,14102;INS_SOLUTION_GOOD,INS_PSRSP,51.77872373865,19.48071499472,223.5434,33.6000,0.0011,0.0007,0.0008,-0.815415739,2.080806414,57.404857374,0.2582,0.1567,0.3199,0.0037,0.0041,0.0034,0.0361,0.0359,2.7489,00000055,0*86cc74b8
#INSPVAXA,COM1,0,50.5,FINESTEERING,1992,397229.000,00000020,4e14,14102;INS_SOLUTION_GOOD,INS_PSRSP,51.77872375101,19.48071501076,223.5441,33.6000,-0.0000,-0.0001,-0.0015,-0.814248893,2.083168650,57.408588119,0.2561,0.1555,0.3172,0.0037,0.0041,0.0034,0.0360,0.0357,2.7486,00000055,0*d61f2317
#INSPVAXA,COM1,0,49.5,FINESTEERING,1992,397230.000,00000020,4e14,14102;INS_SOLUTION_GOOD,INS_PSRSP,51.77872376330,19.48071502684,223.5447,33.6000,0.0001,-0.0006,-0.0040,-0.817955793,2.087493233,57.402048904,0.2541,0.1545,0.3146,0.0037,0.0041,0.0033,0.0359,0.0356,2.7486,00000055,0*f46e1642
#INSPVAXA,COM1,0,49.5,FINESTEERING,1992,397231.000,00000020,4e14,14102;INS_SOLUTION_GOOD,INS_PSRSP,51.77872377546,19.48071504293,223.5452,33.6000,-0.0005,-0.0015,-0.0074,-0.821970394,2.086118364,57.409638422,0.2521,0.1534,0.3120,0.0037,0.0041,0.0033,0.0358,0.0355,2.7486,00000055,0*0358994e
#INSPVAXA,COM1,0,50.5,FINESTEERING,1992,397232.000,00000020,4e14,14102;INS_SOLUTION_GOOD,INS_PSRSP,51.77872378747,19.48071505886,223.5456,33.6000,-0.0008,-0.0039,-0.0086,-0.826151608,2.078256262,57.418914799,0.2501,0.1524,0.3094,0.0037,0.0041,0.0033,0.0357,0.0354,2.7486,00000055,0*4f95adc2
#INSPVAXA,COM1,0,50.5,FINESTEERING,1992,397233.000,00000020,4e14,14102;INS_SOLUTION_GOOD,INS_PSRSP,51.77872379934,19.48071507445,223.5459,33.6000,0.0007,-0.0038,-0.0095,-0.830096579,2.068113030,57.424186969,0.2482,0.1513,0.3069,0.0037,0.0041,0.0033,0.0356,0.0353,2.7485,00000055,0*4b6844b5
#INSPVAXA,COM1,0,50.5,FINESTEERING,1992,397234.000,00000020,4e14,14102;INS_SOLUTION_GOOD,INS_PSRSP,51.77872381120,19.48071508988,223.5461,33.6000,0.0024,0.0008,-0.0096,-0.816146159,2.059410606,57.418650406,0.2463,0.1504,0.3045,0.0037,0.0041,0.0033,0.0355,0.0352,2.7482,00000055,0*2233f794
#INSPVAXA,COM1,0,51.0,FINESTEERING,1992,397235.000,00000020,4e14,14102;INS_SOLUTION_GOOD,INS_PSRSP,51.77872382309,19.48071510551,223.5461,33.6000,0.0008,0.0030,-0.0097,-0.813295524,2.060158017,57.438143816,0.2445,0.1494,0.3022,0.0037,0.0041,0.0033,0.0354,0.0351,2.7476,00000055,0*4dce00d1
#INSPVAXA,COM1,0,50.5,FINESTEERING,1992,397236.000,00000020,4e14,14102;INS_SOLUTION_GOOD,INS_PSRSP,51.77872383494,19.48071512160,223.5461,33.6000,-0.0002,0.0037,-0.0077,-0.811789160,2.065074541,57.455572123,0.2427,0.1484,0.2998,0.0037,0.0041,0.0033,0.0353,0.0350,2.7465,00000055,0*a0a41405
#INSPVAXA,COM1,0,50.5,FINESTEERING,1992,397237.000,00000020,4e14,14102;INS_SOLUTION_GOOD,INS_PSRSP,51.77872384678,19.48071513807,223.5459,33.6000,0.0016,0.0013,-0.0069,-0.819422375,2.067161807,57.472812731,0.2409,0.1475,0.2976,0.0037,0.0041,0.0033,0.0352,0.0349,2.7461,00000055,0*c508fd8d
#INSPVAXA,COM1,0,48.5,FINESTEERING,1992,397238.000,00000020,4e14,14102;INS_SOLUTION_GOOD,INS_PSRSP,51.77872385866,19.48071515484,223.5457,33.6000,0.0020,0.0021,-0.0065,-0.823503793,2.066165043,57.466554547,0.2392,0.1465,0.2954,0.0037,0.0041,0.0033,0.0351,0.0348,2.7461,00000055,0*845b7a9a
#INSPVAXA,COM1,0,48.5,FINESTEERING,1992,397239.000,00000020,4e14,14102;INS_SOLUTION_GOOD,INS_PSRSP,51.77872387053,19.48071517177,223.5454,33.6000,-0.0142,-0.0285,-0.0053,-0.817940400,2.056055611,57.462900346,0.2375,0.1456,0.2932,0.0037,0.0041,0.0033,0.0350,0.0347,2.7460,00000055,0*c2be8e12
#INSPVAXA,COM1,0,50.5,FINESTEERING,1992,397240.000,00000020,4e14,14102;INS_SOLUTION_GOOD,INS_PSRSP,51.77872670008,19.48072126301,223.5041,33.6000,0.5135,0.8358,0.0122,-0.939542969,2.678896514,57.623353512,0.2359,0.1448,0.2911,0.0060,0.0074,0.0052,0.0392,0.0390,2.7450,00000055,0*adf346f4
#INSPVAXA,COM1,0,50.5,FINESTEERING,1992,397241.000,00000020,4e14,14102;INS_SOLUTION_GOOD,INS_PSRSP,51.77873673232,19.48074988379,223.5000,33.6000,1.4404,2.7224,0.0561,-0.883317656,2.705742565,60.834719654,0.2344,0.1446,0.2893,0.0130,0.0458,0.0103,0.0433,0.0432,2.7451,00000055,0*fe889060
#INSPVAXA,COM1,0,50.0,FINESTEERING,1992,397242.000,00000020,4e14,14102;INS_SOLUTION_GOOD,INS_PSRSP,51.77875338573,19.48080291998,223.5281,33.6000,2.1102,4.5624,0.0604,-0.936283914,2.331183877,64.570370547,0.2326,0.1423,0.2869,0.0165,0.0720,0.0132,0.0460,0.0465,1.4388,00000051,0*a54a528b
#INSPVAXA,COM1,0,45.5,FINESTEERING,1992,397243.000,00000020,4e14,14102;INS_SOLUTION_GOOD,INS_PSRSP,51.77877017371,19.48087422209,223.5636,33.6000,1.7060,4.9988,0.0154,-0.474253010,2.094529009,70.554742535,0.2314,0.1422,0.2845,0.0176,0.0490,0.0146,0.0489,0.0501,0.6417,000000d3,0*bec84d01
#INSPVAXA,COM1,0,45.5,FINESTEERING,1992,397244.000,00000020,4e14,14102;INS_SOLUTION_GOOD,INS_PSRSP,51.77878510250,19.48095237351,223.6021,33.6000,1.7806,5.9415,0.0749,-1.062462997,2.125641975,72.774760404,0.2306,0.1423,0.2823,0.0159,0.0287,0.0127,0.0513,0.0540,0.4158,000000d3,0*d3018735
#INSPVAXA,COM1,0,47.0,FINESTEERING,1992,397245.000,00000020,4e14,14102;INS_SOLUTION_GOOD,INS_PSRSP,51.77880262848,19.48104809099,223.6557,33.6000,2.1957,7.2953,0.1285,-0.901626743,2.026923627,72.930132292,0.2300,0.1424,0.2804,0.0156,0.0261,0.0126,0.0523,0.0566,0.3730,000000d3,0*f49300c3
#INSPVAXA,COM1,0,51.0,FINESTEERING,1992,397246.000,00000020,4e14,14102;INS_SOLUTION_GOOD,INS_PSRSP,51.77882278908,19.48115716392,223.7417,33.6000,2.2641,7.4246,0.1229,-0.961602887,2.376583715,72.765356516,0.2293,0.1424,0.2787,0.0155,0.0255,0.0131,0.0527,0.0590,0.3538,000000d3,0*32f8b98c
#INSPVAXA,COM1,0,48.5,FINESTEERING,1992,397247.000,00000020,4e14,14102;INS_SOLUTION_GOOD,INS_PSRSP,51.77884341283,19.48126498445,223.8414,33.6000,2.4177,7.4774,0.1065,-0.845095148,2.103055712,71.834471484,0.2284,0.1424,0.2775,0.0156,0.0229,0.0127,0.0538,0.0614,0.3399,000000d3,0*73a2fd46
#INSPVAXA,COM1,0,48.5,FINESTEERING,1992,397248.000,00000020,4e14,14102;INS_SOLUTION_GOOD,INS_PSRSP,51.77886660899,19.48137332086,223.9575,33.6000,2.7736,7.4928,0.1134,-0.890737070,1.938094752,69.462177309,0.2293,0.1426,0.2771,0.0161,0.0244,0.0131,0.0529,0.0619,0.3392,000000d3,0*e2761cc9
#INSPVAXA,COM1,0,47.0,FINESTEERING,1992,397249.000,00000020,4e14,14102;INS_SOLUTION_GOOD,INS_PSRSP,51.77889298767,19.48148272273,224.0197,33.6000,3.0929,7.6314,0.0243,-0.235055586,1.817066721,67.574596281,0.2303,0.1429,0.2770,0.0165,0.0259,0.0138,0.0513,0.0605,0.3357,000000d3,0*814282aa
#INSPVAXA,COM1,0,42.0,FINESTEERING,1992,397250.000,00000020,4e14,14102;INS_SOLUTION_GOOD,INS_PSRSP,51.77892066160,19.48159440319,224.1226,33.6000,2.9079,7.7467,0.1525,-0.230328111,2.242314259,68.970137758,0.2313,0.1432,0.2772,0.0164,0.0264,0.0144,0.0498,0.0576,0.3285,000000d3,0*f495cf9c
#INSPVAXA,COM1,0,42.0,FINESTEERING,1992,397251.000,00000020,4e14,14102;INS_SOLUTION_GOOD,INS_PSRSP,51.77894277405,19.48170809009,224.3028,33.6000,1.8343,8.0061,0.1934,-0.180133456,2.558321881,76.461567661,0.2323,0.1434,0.2777,0.0161,0.0268,0.0149,0.0494,0.0553,0.3230,000000d3,0*c4165be7
#INSPVAXA,COM1,0,46.0,FINESTEERING,1992,397252.000,00000020,4e14,14102;INS_SOLUTION_GOOD,INS_PSRSP,51.77895198696,19.48182920468,224.4823,33.6000,0.1650,8.7363,0.1428,1.155849291,2.566766615,87.979762935,0.2329,0.1435,0.2783,0.0165,0.0277,0.0160,0.0486,0.0534,0.3263,000000d3,0*d4d9efc7
#INSPVAXA,COM1,0,48.0,FINESTEERING,1992,397253.000,00000020,4e14,14102;INS_SOLUTION_GOOD,INS_PSRSP,51.77894754260,19.48196214900,224.6404,33.6000,-1.0199,9.5967,0.1853,0.888095752,2.463800460,95.484864911,0.2332,0.1435,0.2791,0.0184,0.0285,0.0179,0.0466,0.0529,0.3241,000000d3,0*fdd650f0
#INSPVAXA,COM1,0,47.0,FINESTEERING,1992,397254.000,00000020,4e14,14102;INS_SOLUTION_GOOD,INS_PSRSP,51.77893612488,19.48210780910,224.8077,33.6000,-1.5150,10.4830,0.1071,0.979749429,2.368147339,97.621424408,0.2337,0.1438,0.2806,0.0187,0.0283,0.0182,0.0477,0.0524,0.2957,000000d3,0*151540fb
#INSPVAXA,COM1,0,47.0,FINESTEERING,1992,397255.000,00000020,4e14,14102;INS_SOLUTION_GOOD,INS_PSRSP,51.77892168628,19.48226654153,224.9703,33.6000,-1.6602,11.4337,0.1729,0.853834958,2.350625481,97.810971378,0.2353,0.1444,0.2826,0.0188,0.0280,0.0183,0.0499,0.0536,0.2751,000000d3,0*3f556f6b
#INSPVAXA,COM1,0,47.5,FINESTEERING,1992,397256.000,00000020,4e14,14102;INS_SOLUTION_GOOD,INS_PSRSP,51.77890635534,19.48243398199,225.1603,33.6000,-1.7525,11.4088,0.1777,0.501441288,1.954435806,98.336203065,0.2376,0.1449,0.2852,0.0185,0.0284,0.0184,0.0514,0.0539,0.2685,000000d3,0*9b8ca096
#INSPVAXA,COM1,0,46.5,FINESTEERING,1992,397257.000,00000020,4e14,14102;INS_SOLUTION_GOOD,INS_PSRSP,51.77889052412,19.48259643907,225.3516,33.6000,-1.7915,11.0143,0.1872,0.662685546,1.869234046,98.859571606,0.2414,0.1465,0.2882,0.0206,0.0291,0.0199,0.0530,0.0545,0.2695,000000d3,0*ce84e783
#INSPVAXA,COM1,0,46.5,FINESTEERING,1992,397258.000,00000020,4e14,14102;INS_SOLUTION_GOOD,INS_PSRSP,51.77887391345,19.48275923766,225.5205,33.6000,-1.9433,11.5133,0.1593,0.474529194,2.125032483,99.133848071,0.2460,0.1482,0.2912,0.0224,0.0303,0.0216,0.0531,0.0546,0.2687,000000d3,0*560f3049
#INSPVAXA,COM1,0,47.5,FINESTEERING,1992,397259.000,00000020,4e14,14102;INS_SOLUTION_GOOD,INS_PSRSP,51.77885574887,19.48293009419,225.7114,33.6000,-2.0518,12.0845,0.1871,0.904138172,2.177220869,99.211887296,0.2514,0.1507,0.2943,0.0236,0.0314,0.0243,0.0527,0.0547,0.2690,000000d3,0*bcfa8039
#INSPVAXA,COM1,0,47.0,FINESTEERING,1992,397260.000,00000020,4e14,14102;INS_SOLUTION_GOOD,INS_PSRSP,51.77883700405,19.48310801837,225.9064,33.6000,-2.1085,12.4631,0.2149,0.703803626,2.073999765,99.128677910,0.2589,0.1536,0.2989,0.0245,0.0327,0.0264,0.0526,0.0549,0.2664,000000d3,0*dbb6c2a2
#INSPVAXA,COM1,0,47.0,FINESTEERING,1992,397261.000,00000020,4e14,14102;INS_SOLUTION_GOOD,INS_PSRSP,51.77881821221,19.48328651696,226.0856,33.6000,-2.1022,12.0968,0.1833,0.901366378,1.912706823,99.163996430,0.2708,0.1572,0.3057,0.0246,0.0370,0.0273,0.0522,0.0576,0.2643,000000d3,0*4a1f85af
#INSPVAXA,COM1,0,47.0,FINESTEERING,1992,397262.000,00000020,4e14,14102;INS_SOLUTION_GOOD,INS_PSRSP,51.77879995434,19.48345878757,226.2688,33.6000,-2.0720,11.7564,0.1774,0.656671182,2.029921643,99.472443424,0.2715,0.1565,0.3108,0.0207,0.0359,0.0237,0.0497,0.0556,0.2629,000000d3,0*5f8f1b8c
#INSPVAXA,COM1,0,47.0,FINESTEERING,1992,397263.000,00000020,4e14,14102;INS_SOLUTION_GOOD,INS_PSRSP,51.77878135369,19.48362836687,226.4519,33.6000,-2.0830,11.6755,0.1700,1.222807435,2.104530095,99.522497287,0.2743,0.1572,0.3157,0.0191,0.0353,0.0218,0.0482,0.0541,0.2619,000000d3,0*b9fc46ec
#INSPVAXA,COM1,0,47.0,FINESTEERING,1992,397264.000,00000020,4e14,14102;INS_SOLUTION_GOOD,INS_PSRSP,51.77876315374,19.48379684394,226.5969,33.6000,-1.9506,11.4866,0.1271,1.056583038,1.640549003,99.091613587,0.2754,0.1574,0.3177,0.0185,0.0349,0.0210,0.0472,0.0547,0.2601,000000d3,0*d48eaf88
#INSPVAXA,COM1,0,48.0,FINESTEERING,1992,397265.000,00000020,4e14,14102;INS_SOLUTION_GOOD,INS_PSRSP,51.77874621643,19.48396031608,226.6738,33.6000,-1.7851,11.0290,0.0834,1.037472291,1.274447078,98.645676930,0.2766,0.1578,0.3197,0.0185,0.0346,0.0207,0.0470,0.0538,0.2577,000000d3,0*18e90675
#INSPVAXA,COM1,0,49.5,FINESTEERING,1992,397266.000,00000020,4e14,14102;INS_SOLUTION_GOOD,INS_PSRSP,51.77873063125,19.48411600772,226.7629,33.6000,-1.7144,10.3707,0.1068,0.609359543,1.408696985,98.853756587,0.2787,0.1583,0.3223,0.0186,0.0345,0.0207,0.0468,0.0536,0.2560,000000d3,0*da5c88ad
#INSPVAXA,COM1,0,48.5,FINESTEERING,1992,397267.000,00000020,4e14,14102;INS_SOLUTION_GOOD,INS_PSRSP,51.77871559664,19.48426132275,226.8503,33.6000,-1.6827,9.7540,0.0836,0.656129108,1.432413136,99.203970904,0.2790,0.1588,0.3243,0.0175,0.0325,0.0206,0.0465,0.0521,0.2547,000000d3,0*fdf98bd6
#INSPVAXA,COM1,0,47.0,FINESTEERING,1992,397268.000,00000020,4e14,14102;INS_SOLUTION_GOOD,INS_PSRSP,51.77870096425,19.48439911074,226.9189,33.6000,-1.6302,9.2651,0.0663,0.706867715,1.354821081,99.452010047,0.2793,0.1590,0.3263,0.0169,0.0315,0.0206,0.0464,0.0519,0.2532,000000d3,0*37b8d497
#INSPVAXA,COM1,0,46.0,FINESTEERING,1992,397269.000,00000020,4e14,14102;INS_SOLUTION_GOOD,INS_PSRSP,51.77868667644,19.48452968931,226.9557,33.6000,-1.5789,8.8061,0.0803,0.782051295,1.453132414,99.536486036,0.2783,0.1590,0.3275,0.0167,0.0308,0.0205,0.0465,0.0523,0.2516,000000d3,0*a44ef7b0
#INSPVAXA,COM1,0,46.0,FINESTEERING,1992,397270.000,00000020,4e14,14102;INS_SOLUTION_GOOD,INS_PSRSP,51.77867300243,19.48465521233,227.0134,33.6000,-1.5241,8.5336,0.0843,0.844559941,1.597104294,99.610845657,0.2763,0.1582,0.3282,0.0165,0.0277,0.0202,0.0461,0.0513,0.2500,000000d3,0*13a2ed02
#INSPVAXA,COM1,0,47.0,FINESTEERING,1992,397271.000,00000020,4e14,14102;INS_SOLUTION_GOOD,INS_PSRSP,51.77865948989,19.48477724013,227.0573,33.6000,-1.5130,8.4636,0.0583,0.996137470,1.526898709,99.650324475,0.2749,0.1577,0.3291,0.0165,0.0263,0.0200,0.0460,0.0514,0.2496,000000d3,0*357c7d90
#INSPVAXA,COM1,0,47.5,FINESTEERING,1992,397272.000,00000020,4e14,14102;INS_SOLUTION_GOOD,INS_PSRSP,51.77864578600,19.48490154271,227.1140,33.6000,-1.5408,8.5408,0.0623,0.869579223,1.527334148,99.659904850,0.2749,0.1573,0.3306,0.0166,0.0258,0.0198,0.0459,0.0514,0.2497,000000d3,0*8fb5aa64
#INSPVAXA,COM1,0,47.5,FINESTEERING,1992,397273.000,00000020,4e14,14102;INS_SOLUTION_GOOD,INS_PSRSP,51.77863224922,19.48502345790,227.1598,33.6000,-1.5172,8.3640,0.0364,0.856686460,1.654570540,99.787515465,0.2748,0.1570,0.3321,0.0167,0.0258,0.0197,0.0457,0.0514,0.2503,000000d3,0*77145f59
#INSPVAXA,COM1,0,47.5,FINESTEERING,1992,397274.000,00000020,4e14,14102;INS_SOLUTION_GOOD,INS_PSRSP,51.77861867290,19.48514598922,227.2286,33.6000,-1.5475,8.6267,0.0751,0.870875377,1.643733861,99.677428419,0.2748,0.1568,0.3335,0.0166,0.0257,0.0197,0.0465,0.0510,0.2502,000000d3,0*9befadbd
#INSPVAXA,COM1,0,47.5,FINESTEERING,1992,397275.000,00000020,4e14,14102;INS_SOLUTION_GOOD,INS_PSRSP,51.77860479439,19.48527294531,227.3072,33.6000,-1.5593,8.8588,0.0853,0.861995412,1.754365169,99.513747180,0.2747,0.1565,0.3349,0.0168,0.0261,0.0196,0.0463,0.0508,0.2500,000000d3,0*96ca7f60
#INSPVAXA,COM1,0,45.5,FINESTEERING,1992,397276.000,00000020,4e14,14102;INS_SOLUTION_GOOD,INS_PSRSP,51.77859072733,19.48540354305,227.3727,33.6000,-1.5862,9.1471,0.0807,0.690521356,1.647725785,99.372965391,0.2735,0.1561,0.3355,0.0169,0.0263,0.0195,0.0458,0.0503,0.2502,000000d3,0*55fa266c
#INSPVAXA,COM1,0,45.5,FINESTEERING,1992,397277.000,00000020,4e14,14102;INS_SOLUTION_GOOD,INS_PSRSP,51.77857629741,19.48553918304,227.4216,33.6000,-1.5799,9.5646,0.0619,0.774538482,1.784828963,98.911506082,0.2723,0.1558,0.3360,0.0169,0.0263,0.0194,0.0454,0.0498,0.2491,000000d3,0*7d100cd7
#INSPVAXA,COM1,0,48.0,FINESTEERING,1992,397278.000,00000020,4e14,14102;INS_SOLUTION_GOOD,INS_PSRSP,51.77856144137,19.48568082522,227.4829,33.6000,-1.7291,9.9385,0.0958,0.919739382,1.735780654,99.235672820,0.2709,0.1554,0.3361,0.0169,0.0261,0.0193,0.0457,0.0494,0.2478,000000d3,0*767c7c0b
#INSPVAXA,COM1,0,48.0,FINESTEERING,1992,397279.000,00000020,4e14,14102;INS_SOLUTION_GOOD,INS_PSRSP,51.77854531443,19.48582784305,227.5351,33.6000,-1.8085,10.3287,0.0342,0.915287982,1.737306564,99.404312248,0.2698,0.1551,0.3366,0.0168,0.0260,0.0192,0.0448,0.0501,0.2471,000000d3,0*b227faf8
#INSPVAXA,COM1,0,47.0,FINESTEERING,1992,397280.000,00000020,4e14,14102;INS_SOLUTION_GOOD,INS_PSRSP,51.77852857294,19.48597980052,227.6079,33.6000,-1.8558,10.6517,0.0842,0.936068372,1.594599746,99.345346536,0.2684,0.1547,0.3365,0.0167,0.0256,0.0191,0.0455,0.0508,0.2459,000000d3,0*1c05eb69
#INSPVAXA,COM1,0,47.0,FINESTEERING,1992,397281.000,00000020,4e14,14102;INS_SOLUTION_GOOD,INS_PSRSP,51.77851169599,19.48613564811,227.6641,33.6000,-1.8624,10.7198,0.0773,0.830950010,1.505948603,99.251164972,0.2674,0.1544,0.3370,0.0167,0.0257,0.0191,0.0456,0.0516,0.2456,000000d3,0*719b61fa
#INSPVAXA,COM1,0,46.5,FINESTEERING,1992,397282.000,00000020,4e14,14102;INS_SOLUTION_GOOD,INS_PSRSP,51.77849495443,19.48629063170,227.7190,33.6000,-1.8757,10.7824,0.0656,0.842229336,1.568708932,99.257708407,0.2654,0.1541,0.3358,0.0165,0.0248,0.0189,0.0455,0.0520,0.2452,000000d3,0*666f2331
#INSPVAXA,COM1,0,46.5,FINESTEERING,1992,397283.000,00000020,4e14,14102;INS_SOLUTION_GOOD,INS_PSRSP,51.77847786987,19.48644923913,227.7859,33.6000,-1.9271,11.1270,0.0741,0.800827501,1.781627409,99.197193684,0.2643,0.1538,0.3360,0.0165,0.0252,0.0190,0.0456,0.0508,0.2454,000000d3,0*437c14b1
#INSPVAXA,COM1,0,46.0,FINESTEERING,1992,397284.000,00000020,4e14,14102;INS_SOLUTION_GOOD,INS_PSRSP,51.77846032876,19.48661340704,227.8582,33.6000,-1.9747,11.5119,0.0911,0.830839727,1.726152851,99.120693544,0.2634,0.1535,0.3365,0.0165,0.0255,0.0189,0.0452,0.0509,0.2460,000000d3,0*1160ea6a
#INSPVAXA,COM1,0,46.0,FINESTEERING,1992,397285.000,00000020,4e14,14102;INS_SOLUTION_GOOD,INS_PSRSP,51.77844239708,19.48678272613,227.9320,33.6000,-2.0163,11.8261,0.1068,0.882058331,1.705577903,99.072286993,0.2625,0.1532,0.3369,0.0165,0.0256,0.0189,0.0451,0.0501,0.2467,000000d3,0*8706b122
#INSPVAXA,COM1,0,47.0,FINESTEERING,1992,397286.000,00000020,4e14,14102;INS_SOLUTION_GOOD,INS_PSRSP,51.77842439346,19.48695640213,228.0519,33.6000,-2.0319,12.1401,0.0867,0.795340694,1.591123138,98.970466471,0.2632,0.1532,0.3381,0.0172,0.0262,0.0191,0.0455,0.0506,0.2472,000000d3,0*6bd89435
#INSPVAXA,COM1,0,47.0,FINESTEERING,1992,397287.000,00000020,4e14,14102;INS_SOLUTION_GOOD,INS_PSRSP,51.77840589153,19.48713411065,228.1518,33.6000,-2.1126,12.3825,0.1023,0.528334721,1.712648374,99.191457931,0.2681,0.1548,0.3442,0.0186,0.0295,0.0193,0.0463,0.0519,0.2483,000000d3,0*49572361
#INSPVAXA,COM1,0,47.0,FINESTEERING,1992,397288.000,00000020,4e14,14102;INS_SOLUTION_GOOD,INS_PSRSP,51.77838625944,19.48731535656,228.2539,33.6000,-2.2312,12.6300,0.1156,0.787081852,1.730541319,99.436440949,0.2745,0.1569,0.3524,0.0196,0.0317,0.0208,0.0470,0.0531,0.2500,000000d3,0*5c7e9515
#INSPVAXA,COM1,0,47.5,FINESTEERING,1992,397289.000,00000020,4e14,14102;INS_SOLUTION_GOOD,INS_PSRSP,51.77836599040,19.48750006332,228.3493,33.6000,-2.2600,12.8107,0.1147,0.672555244,1.682188023,99.442148368,0.2825,0.1598,0.3602,0.0215,0.0341,0.0232,0.0478,0.0545,0.2511,000000d3,0*cd1fdfd3
#INSPVAXA,COM1,0,47.5,FINESTEERING,1992,397290.000,00000020,4e14,14102;INS_SOLUTION_GOOD,INS_PSRSP,51.77834584868,19.48768435248,228.4517,33.6000,-2.2264,12.5644,0.1226,0.614673027,1.518985512,99.487300545,0.2916,0.1633,0.3687,0.0221,0.0365,0.0254,0.0481,0.0553,0.2522,000000d3,0*8a8e8df3
#INSPVAXA,COM1,0,47.5,FINESTEERING,1992,397291.000,00000020,4e14,14102;INS_SOLUTION_GOOD,INS_PSRSP,51.77832594228,19.48786455987,228.5513,33.6000,-2.1846,12.3344,0.0891,0.614845857,1.583147090,99.469305692,0.2993,0.1668,0.3785,0.0216,0.0372,0.0268,0.0480,0.0550,0.2537,000000d3,0*c552e1d6
#INSPVAXA,COM1,0,49.0,FINESTEERING,1992,397292.000,00000020,4e14,14102;INS_SOLUTION_GOOD,INS_PSRSP,51.77830677803,19.48804174971,228.6497,33.6000,-2.1420,12.1266,0.1081,0.763219424,1.586924958,99.445724367,0.3103,0.1711,0.3895,0.0223,0.0392,0.0290,0.0484,0.0558,0.2549,000000d3,0*197db5a2
#INSPVAXA,COM1,0,44.5,FINESTEERING,1992,397293.000,00000020,4e14,14102;INS_SOLUTION_GOOD,INS_PSRSP,51.77828814488,19.48821616422,228.7703,33.6000,-2.0876,11.9194,0.1039,0.738115687,1.581640527,99.432183154,0.3193,0.1751,0.4011,0.0222,0.0398,0.0302,0.0484,0.0557,0.2553,000000d3,0*fc914a01
#INSPVAXA,COM1,0,44.5,FINESTEERING,1992,397294.000,00000020,4e14,14102;INS_SOLUTION_GOOD,INS_PSRSP,51.77826938088,19.48838745977,228.8853,33.6000,-2.0751,11.7573,0.0888,0.796888233,1.553549103,99.455971834,0.3231,0.1786,0.4126,0.0210,0.0384,0.0302,0.0480,0.0543,0.2560,000001d2,0*6bd74577
#INSPVAXA,COM1,0,44.5,FINESTEERING,1992,397295.000,00000020,4e14,14102;INS_SOLUTION_GOOD,INS_PSRSP,51.77825065009,19.48855706006,228.9836,33.6000,-2.1009,11.6203,0.1005,0.834647198,1.517735521,99.642192047,0.3339,0.1836,0.4256,0.0219,0.0396,0.0318,0.0486,0.0551,0.2571,000000d3,0*7381a8c3
#INSPVAXA,COM1,0,48.5,FINESTEERING,1992,397296.000,00000020,4e14,14102;INS_SOLUTION_GOOD,INS_PSRSP,51.77823211957,19.48872407337,229.0801,33.6000,-2.0681,11.3811,0.0980,0.784589541,1.576622204,99.730604718,0.3455,0.1891,0.4391,0.0227,0.0407,0.0333,0.0488,0.0560,0.2580,000000d3,0*342bdb13
#INSPVAXA,COM1,0,48.5,FINESTEERING,1992,397297.000,00000020,4e14,14102;INS_SOLUTION_GOOD,INS_PSRSP,51.77821354163,19.48888582612,229.1962,33.6000,-2.0774,10.9394,0.0924,0.998659412,1.420297294,100.147080097,0.3528,0.1927,0.4460,0.0233,0.0417,0.0345,0.0506,0.0565,0.2594,000000d3,0*880f6254
#INSPVAXA,COM1,0,48.5,FINESTEERING,1992,397298.000,00000020,4e14,14102;INS_SOLUTION_GOOD,INS_PSRSP,51.77819553422,19.48904318852,229.3116,33.6000,-2.0236,10.7774,0.1326,0.919847581,1.622840223,100.100741786,0.3569,0.1946,0.4483,0.0234,0.0420,0.0342,0.0503,0.0566,0.2605,000000d3,0*bbf1c7e9
#INSPVAXA,COM1,0,48.5,FINESTEERING,1992,397299.000,00000020,4e14,14102;INS_SOLUTION_GOOD,INS_PSRSP,51.77817748240,19.48919713216,229.4033,33.6000,-1.9768,10.5081,0.1030,1.199189385,1.518265932,100.023106881,0.3589,0.1961,0.4527,0.0224,0.0403,0.0318,0.0489,0.0554,0.2612,000000d3,0*4e4231af
#INSPVAXA,COM1,0,49.5,FINESTEERING,1992,397300.000,00000020,4e14,14102;INS_SOLUTION_GOOD,INS_PSRSP,51.77815983302,19.48934847338,229.4993,33.6000,-2.0373,10.4215,0.1284,1.427289378,1.569313256,100.403370052,0.3552,0.1950,0.4508,0.0205,0.0369,0.0274,0.0484,0.0539,0.2618,000000d3,0*44420b89
#INSPVAXA,COM1,0,49.0,FINESTEERING,1992,397301.000,00000020,4e14,14102;INS_SOLUTION_GOOD,INS_PSRSP,51.77814180744,19.48949872303,229.5590,33.6000,-2.0237,10.3367,0.1068,0.996754360,1.529086924,100.534255361,0.3481,0.1925,0.4417,0.0188,0.0328,0.0244,0.0472,0.0525,0.2616,000000d3,0*785c9bf1
#INSPVAXA,COM1,0,49.0,FINESTEERING,1992,397302.000,00000020,4e14,14102;INS_SOLUTION_GOOD,INS_PSRSP,51.77812400858,19.48964842938,229.6139,33.6000,-1.9572,10.4521,0.0866,1.170530108,1.595010087,100.079981820,0.3444,0.1905,0.4349,0.0183,0.0312,0.0229,0.0467,0.0521,0.2622,000000d3,0*31f0ea75
#INSPVAXA,COM1,0,49.0,FINESTEERING,1992,397303.000,00000020,4e14,14102;INS_SOLUTION_GOOD,INS_PSRSP,51.77810765438,19.48980350601,229.6975,33.6000,-1.7177,11.0209,0.1642,1.559658387,1.873081918,98.291200168,0.3415,0.1888,0.4295,0.0181,0.0307,0.0221,0.0461,0.0521,0.2609,000000d3,0*a3c87e42
#INSPVAXA,COM1,0,48.0,FINESTEERING,1992,397304.000,00000020,4e14,14102;INS_SOLUTION_GOOD,INS_PSRSP,51.77809222254,19.48996772535,229.7804,33.6000,-1.8102,11.6208,0.1344,1.210412149,1.832078395,98.265724230,0.3429,0.1886,0.4308,0.0183,0.0285,0.0213,0.0451,0.0511,0.2604,000000d3,0*f78937cd
#INSPVAXA,COM1,0,48.0,FINESTEERING,1992,397305.000,00000020,4e14,14102;INS_SOLUTION_GOOD,INS_PSRSP,51.77807548303,19.49013910479,229.8787,33.6000,-1.9150,12.0188,0.1290,1.448142619,1.615214082,98.495895545,0.3398,0.1871,0.4291,0.0190,0.0281,0.0222,0.0453,0.0515,0.2604,000000d3,0*a902e45f
#INSPVAXA,COM1,0,49.5,FINESTEERING,1992,397306.000,00000020,4e14,14102;INS_SOLUTION_GOOD,INS_PSRSP,51.77805848424,19.49031478594,229.9963,33.6000,-1.9033,12.2228,0.1319,1.354013177,1.640338335,98.344115582,0.3374,0.1859,0.4281,0.0192,0.0280,0.0230,0.0453,0.0512,0.2593,000000d3,0*0a6a2615
#INSPVAXA,COM1,0,50.5,FINESTEERING,1992,397307.000,00000020,4e14,14102;INS_SOLUTION_GOOD,INS_PSRSP,51.77804126139,19.49049289185,230.1399,33.6000,-1.9297,12.3577,0.1665,1.288474266,1.743555885,98.312665010,0.3360,0.1859,0.4281,0.0190,0.0300,0.0236,0.0458,0.0520,0.2587,000000d3,0*81ae9252
#INSPVAXA,COM1,0,50.0,FINESTEERING,1992,397308.000,00000020,4e14,14102;INS_SOLUTION_GOOD,INS_PSRSP,51.77802320294,19.49067027718,230.2672,33.6000,-2.0360,12.0791,0.1119,1.575211837,1.440613969,99.007015917,0.3389,0.1879,0.4338,0.0186,0.0313,0.0238,0.0463,0.0523,0.2590,000000d3,0*5133f2d7
#INSPVAXA,COM1,0,49.5,FINESTEERING,1992,397309.000,00000020,4e14,14102;INS_SOLUTION_GOOD,INS_PSRSP,51.77800480496,19.49084169153,230.3380,33.6000,-2.0610,11.6002,0.1341,1.225469527,1.495158657,99.439239771,0.3416,0.1893,0.4371,0.0180,0.0316,0.0231,0.0456,0.0523,0.2596,000000d3,0*5bd5d9ce
#INSPVAXA,COM1,0,48.5,FINESTEERING,1992,397310.000,00000020,4e14,14102;INS_SOLUTION_GOOD,INS_PSRSP,51.77798634897,19.49100667453,230.4614,33.6000,-2.0498,11.1819,0.1235,1.170900596,1.481690758,99.741130978,0.3441,0.1907,0.4407,0.0175,0.0314,0.0228,0.0454,0.0514,0.2614,000000d3,0*0455ec8a
#INSPVAXA,COM1,0,48.5,FINESTEERING,1992,397311.000,00000020,4e14,14102;INS_SOLUTION_GOOD,INS_PSRSP,51.77796839349,19.49116642254,230.5920,33.6000,-1.9440,10.8435,0.1362,1.342278091,1.455599025,99.563705108,0.3467,0.1935,0.4486,0.0173,0.0312,0.0244,0.0462,0.0515,0.2624,000000d3,0*72e5d3c9
#INSPVAXA,COM1,0,48.5,FINESTEERING,1992,397312.000,00000020,4e14,14102;INS_SOLUTION_GOOD,INS_PSRSP,51.77795177899,19.49131868414,230.6810,33.6000,-1.7511,10.1602,0.1296,1.285355853,1.425219467,99.189034175,0.3492,0.1949,0.4549,0.0172,0.0287,0.0249,0.0456,0.0508,0.2626,000000d3,0*af2ffb32
#INSPVAXA,COM1,0,48.5,FINESTEERING,1992,397313.000,00000020,4e14,14102;INS_SOLUTION_GOOD,INS_PSRSP,51.77793698135,19.49146116698,230.7238,33.6000,-1.5542,9.6579,0.0902,1.148473352,1.336501013,98.565169939,0.3479,0.1946,0.4543,0.0179,0.0281,0.0254,0.0455,0.0512,0.2626,000000d3,0*b5e00704
#INSPVAXA,COM1,0,49.5,FINESTEERING,1992,397314.000,00000020,4e14,14102;INS_SOLUTION_GOOD,INS_PSRSP,51.77792360461,19.49160029884,230.7847,33.6000,-1.4487,9.7201,0.1049,1.001566980,1.576264029,97.901288865,0.3463,0.1938,0.4527,0.0184,0.0280,0.0257,0.0456,0.0517,0.2613,000000d3,0*f5405dc5
#INSPVAXA,COM1,0,49.5,FINESTEERING,1992,397315.000,00000020,4e14,14102;INS_SOLUTION_GOOD,INS_PSRSP,51.77791090030,19.49174432748,230.8542,33.6000,-1.3957,10.2056,0.0988,0.493800385,1.653431958,97.226633812,0.3454,0.1931,0.4537,0.0194,0.0283,0.0258,0.0463,0.0522,0.2600,000000d3,0*ce51cd5b
